[
    {"label": "Hyderabad", "latitude": 17.382821551511018, "longitude": 78.401279907116},
    {"label": "S. Paulo", "latitude": -23.534546550251083, "longitude": -46.634038996198484},
    {"label": "Seoul", "latitude": 37.55143630662973, "longitude": 126.98759841943439},
    {"label": "London", "latitude": 51.501470204941825, "longitude": -0.1418640282582518},
    {"label": "Berlin", "latitude": 52.51617103440771, "longitude": 13.377605461465437},
    {"label": "San Francisco", "latitude": 37.79581672684904, "longitude": -122.39272840453546}
]